{"type":"FeatureCollection","features":[{"type":"Feature","id":"B789","geometry":{"type":"Point","coordinates":[139.750473,35.669865]},"properties":{"vehicle_id":"B789","route_id":"006","route_short_name":"都01（T01）","route_display_name":"都01（T01） 渋谷駅前行","route_label":"都01（T01）","destination":"渋谷駅前","trip_id":"08501-2-09-172-2211","pattern_id":"8501","stop_id":"1036-02","stop_name":"虎ノ門","next_stop_name":"虎ノ門","current_stop_name":null,"current_status":"IN_TRANSIT_TO","timestamp":1777641482,"feed_timestamp":1777641609,"source":"odpt"}},{"type":"Feature","id":"B787","geometry":{"type":"Point","coordinates":[139.724625,35.659855]},"properties":{"vehicle_id":"B787","route_id":"006","route_short_name":"都01（T01）","route_display_name":"都01（T01） 渋谷駅前行","route_label":"都01（T01）","destination":"渋谷駅前","trip_id":"08501-2-09-172-2150","pattern_id":"8501","stop_id":"1130-03","stop_name":"西麻布","next_stop_name":"西麻布","current_stop_name":null,"current_status":"IN_TRANSIT_TO","timestamp":1777641457,"feed_timestamp":1777641609,"source":"odpt"}},{"type":"Feature","id":"B785","geometry":{"type":"Point","coordinates":[139.718216,35.659405]},"properties":{"vehicle_id":"B785","route_id":"006","route_short_name":"都01（T01）","route_display_name":"都01（T01） 赤坂アークヒルズ行","route_label":"都01（T01）","destination":"赤坂アークヒルズ","trip_id":"08505-1-09-172-2211","pattern_id":"8505","stop_id":"1469-04","stop_name":"南青山七丁目","next_stop_name":"南青山七丁目","current_stop_name":null,"current_status":"IN_TRANSIT_TO","timestamp":1777641585,"feed_timestamp":1777641609,"source":"odpt"}},{"type":"Feature","id":"D332","geometry":{"type":"Point","coordinates":[139.735962,35.66489]},"properties":{"vehicle_id":"D332","route_id":"006","route_short_name":"都01（T01）","route_display_name":"都01（T01） 渋谷駅前行","route_label":"都01（T01）","destination":"渋谷駅前","trip_id":"08505-2-09-172-2216","pattern_id":"8505","stop_id":"1611-07","stop_name":"六本木四丁目","next_stop_name":"六本木四丁目","current_stop_name":null,"current_status":"IN_TRANSIT_TO","timestamp":1777641542,"feed_timestamp":1777641609,"source":"odpt"}},{"type":"Feature","id":"M399","geometry":{"type":"Point","coordinates":[139.73114,35.662521]},"properties":{"vehicle_id":"M399","route_id":"006","route_short_name":"都01（T01）","route_display_name":"都01（T01） 渋谷駅前行","route_label":"都01（T01）","destination":"渋谷駅前","trip_id":"08505-2-09-172-2210","pattern_id":"8505","stop_id":"1609-02","stop_name":"六本木駅前","next_stop_name":"六本木駅前","current_stop_name":null,"current_status":"IN_TRANSIT_TO","timestamp":1777641527,"feed_timestamp":1777641609,"source":"odpt"}},{"type":"Feature","id":"L183","geometry":{"type":"Point","coordinates":[139.799606,35.661827]},"properties":{"vehicle_id":"L183","route_id":"018","route_short_name":"海01（KM01）","route_display_name":"海01（KM01） 有明一丁目行","route_label":"海01（KM01）","destination":"有明一丁目","trip_id":"72807-1-85-170-2202","pattern_id":"72807","stop_id":"2204-02","stop_name":"浜園橋","next_stop_name":"浜園橋","current_stop_name":null,"current_status":"IN_TRANSIT_TO","timestamp":1777641514,"feed_timestamp":1777641609,"source":"odpt"}},{"type":"Feature","id":"L186","geometry":{"type":"Point","coordinates":[139.785324,35.635143]},"properties":{"vehicle_id":"L186","route_id":"018","route_short_name":"海01（KM01）","route_display_name":"海01（KM01） 台場二丁目行","route_label":"海01（KM01）","destination":"台場二丁目","trip_id":"72813-1-85-170-2147","pattern_id":"72813","stop_id":"2144-02","stop_name":"有明一丁目","next_stop_name":"有明一丁目","current_stop_name":null,"current_status":"IN_TRANSIT_TO","timestamp":1777641577,"feed_timestamp":1777641609,"source":"odpt"}},{"type":"Feature","id":"E377","geometry":{"type":"Point","coordinates":[139.748917,35.709198]},"properties":{"vehicle_id":"E377","route_id":"020","route_short_name":"都02","route_display_name":"都02 錦糸町駅前行","route_label":"都02","destination":"錦糸町駅前","trip_id":"32301-1-45-170-2206","pattern_id":"32301","stop_id":"1018-02","stop_name":"富坂上","next_stop_name":"富坂上","current_stop_name":null,"current_status":"IN_TRANSIT_TO","timestamp":1777641485,"feed_timestamp":1777641609,"source":"odpt"}},{"type":"Feature","id":"C226","geometry":{"type":"Point","coordinates":[139.771973,35.708187]},"properties":{"vehicle_id":"C226","route_id":"020","route_short_name":"都02","route_display_name":"都02 錦糸町駅前行","route_label":"都02","destination":"錦糸町駅前","trip_id":"32301-1-45-170-2151","pattern_id":"32301","stop_id":"0135-08","stop_name":"上野広小路","next_stop_name":"上野広小路","current_stop_name":null,"current_status":"IN_TRANSIT_TO","timestamp":1777641482,"feed_timestamp":1777641609,"source":"odpt"}},{"type":"Feature","id":"K241","geometry":{"type":"Point","coordinates":[139.812225,35.701153]},"properties":{"vehicle_id":"K241","route_id":"020","route_short_name":"都02","route_display_name":"都02 錦糸町駅前行","route_label":"都02","destination":"錦糸町駅前","trip_id":"32301-1-45-170-2136","pattern_id":"32301","stop_id":"2129-01","stop_name":"太平二丁目","next_stop_name":"太平二丁目","current_stop_name":null,"current_status":"IN_TRANSIT_TO","timestamp":1777641555,"feed_timestamp":1777641609,"source":"odpt"}},{"type":"Feature","id":"G809","geometry":{"type":"Point","coordinates":[139.814758,35.69923]},"properties":{"vehicle_id":"G809","route_id":"020","route_short_name":"都02","route_display_name":"都02 大塚駅前行","route_label":"都02","destination":"大塚駅前","trip_id":"32301-2-45-170-2217","pattern_id":"32301","stop_id":"0441-01","stop_name":"錦糸公園前","next_stop_name":"錦糸公園前","current_stop_name":null,"current_status":"IN_TRANSIT_TO","timestamp":1777641578,"feed_timestamp":1777641609,"source":"odpt"}},{"type":"Feature","id":"M392","geometry":{"type":"Point","coordinates":[139.790253,35.706078]},"properties":{"vehicle_id":"M392","route_id":"020","route_short_name":"都02","route_display_name":"都02 大塚駅前行","route_label":"都02","destination":"大塚駅前","trip_id":"32301-2-45-170-2204","pattern_id":"32301","stop_id":"0534-01","stop_name":"寿三丁目","next_stop_name":"寿三丁目","current_stop_name":null,"current_status":"IN_TRANSIT_TO","timestamp":1777641593,"feed_timestamp":1777641609,"source":"odpt"}},{"type":"Feature","id":"G799","geometry":{"type":"Point","coordinates":[139.764496,35.707363]},"properties":{"vehicle_id":"G799","route_id":"020","route_short_name":"都02","route_display_name":"都02 大塚駅前行","route_label":"都02","destination":"大塚駅前","trip_id":"32301-2-45-170-2151","pattern_id":"32301","stop_id":"1575-01","stop_name":"湯島四丁目","next_stop_name":"湯島四丁目","current_stop_name":null,"current_status":"IN_TRANSIT_TO","timestamp":1777641521,"feed_timestamp":1777641609,"source":"odpt"}},{"type":"Feature","id":"B738","geometry":{"type":"Point","coordinates":[139.738724,35.716331]},"properties":{"vehicle_id":"B738","route_id":"020","route_short_name":"都02","route_display_name":"都02 大塚駅前行","route_label":"都02","destination":"大塚駅前","trip_id":"32301-2-45-170-2138","pattern_id":"32301","stop_id":"0536-02","stop_name":"小日向四丁目","next_stop_name":"小日向四丁目","current_stop_name":null,"current_status":"IN_TRANSIT_TO","timestamp":1777641581,"feed_timestamp":1777641609,"source":"odpt"}},{"type":"Feature","id":"E374","geometry":{"type":"Point","coordinates":[139.775711,35.658115]},"properties":{"vehicle_id":"E374","route_id":"026","route_short_name":"都04","route_display_name":"都04 東京駅丸の内南口行","route_label":"都04","destination":"東京駅丸の内南口","trip_id":"72301-1-06-170-2215","pattern_id":"72301","stop_id":"0327-02","stop_name":"勝どき三丁目","next_stop_name":"勝どき三丁目","current_stop_name":null,"current_status":"IN_TRANSIT_TO","timestamp":1777641484,"feed_timestamp":1777641609,"source":"odpt"}},{"type":"Feature","id":"B714","geometry":{"type":"Point","coordinates":[139.777084,35.658768]},"properties":{"vehicle_id":"B714","route_id":"026","route_short_name":"都04","route_display_name":"都04 豊海水産埠頭行","route_label":"都04","destination":"豊海水産埠頭","trip_id":"72301-2-06-170-2200","pattern_id":"72301","stop_id":"0326-06","stop_name":"勝どき駅前","next_stop_name":"勝どき駅前","current_stop_name":null,"current_status":"IN_TRANSIT_TO","timestamp":1777641538,"feed_timestamp":1777641609,"source":"odpt"}},{"type":"Feature","id":"F553","geometry":{"type":"Point","coordinates":[139.736969,35.649521]},"properties":{"vehicle_id":"F553","route_id":"031","route_short_name":"都06","route_display_name":"都06 渋谷駅前行","route_label":"都06","destination":"渋谷駅前","trip_id":"08601-2-09-172-2200","pattern_id":"8601","stop_id":"0587-02","stop_name":"三ノ橋","next_stop_name":"三ノ橋","current_stop_name":null,"current_status":"IN_TRANSIT_TO","timestamp":1777641573,"feed_timestamp":1777641609,"source":"odpt"}},{"type":"Feature","id":"L314","geometry":{"type":"Point","coordinates":[139.712097,35.648552]},"properties":{"vehicle_id":"L314","route_id":"031","route_short_name":"都06","route_display_name":"都06 渋谷駅前行","route_label":"都06","destination":"渋谷駅前","trip_id":"08602-2-09-172-2200","pattern_id":"8602","stop_id":"0640-08","stop_name":"渋谷橋","next_stop_name":"渋谷橋","current_stop_name":null,"current_status":"IN_TRANSIT_TO","timestamp":1777641506,"feed_timestamp":1777641609,"source":"odpt"}},{"type":"Feature","id":"M463","geometry":{"type":"Point","coordinates":[139.825943,35.69569]},"properties":{"vehicle_id":"M463","route_id":"036","route_short_name":"都07","route_display_name":"都07 門前仲町行","route_label":"都07","destination":"門前仲町","trip_id":"60101-1-65-170-2215","pattern_id":"60101","stop_id":"0368-14","stop_name":"亀戸駅通り","next_stop_name":"亀戸駅通り","current_stop_name":null,"current_status":"IN_TRANSIT_TO","timestamp":1777641560,"feed_timestamp":1777641609,"source":"odpt"}},{"type":"Feature","id":"W439","geometry":{"type":"Point","coordinates":[139.827148,35.676605]},"properties":{"vehicle_id":"W439","route_id":"036","route_short_name":"都07","route_display_name":"都07 門前仲町行","route_label":"都07","destination":"門前仲町","trip_id":"60101-1-65-170-2205","pattern_id":"60101","stop_id":"0565-04","stop_name":"境川","next_stop_name":"境川","current_stop_name":null,"current_status":"IN_TRANSIT_TO","timestamp":1777641525,"feed_timestamp":1777641609,"source":"odpt"}},{"type":"Feature","id":"A652","geometry":{"type":"Point","coordinates":[139.803436,35.669418]},"properties":{"vehicle_id":"A652","route_id":"036","route_short_name":"都07","route_display_name":"都07 門前仲町行","route_label":"都07","destination":"門前仲町","trip_id":"60101-1-65-170-2155","pattern_id":"60101","stop_id":"0426-01","stop_name":"木場二丁目","next_stop_name":"木場二丁目","current_stop_name":null,"current_status":"IN_TRANSIT_TO","timestamp":1777641586,"feed_timestamp":1777641609,"source":"odpt"}},{"type":"Feature","id":"F622","geometry":{"type":"Point","coordinates":[139.813736,35.669556]},"properties":{"vehicle_id":"F622","route_id":"036","route_short_name":"都07","route_display_name":"都07 錦糸町駅前行","route_label":"都07","destination":"錦糸町駅前","trip_id":"60101-2-65-170-2211","pattern_id":"60101","stop_id":"0987-02","stop_name":"東陽操車所前","next_stop_name":"東陽操車所前","current_stop_name":null,"current_status":"IN_TRANSIT_TO","timestamp":1777641593,"feed_timestamp":1777641609,"source":"odpt"}},{"type":"Feature","id":"W469","geometry":{"type":"Point","coordinates":[139.826401,35.687378]},"properties":{"vehicle_id":"W469","route_id":"036","route_short_name":"都07","route_display_name":"都07 錦糸町駅前行","route_label":"都07","destination":"錦糸町駅前","trip_id":"60101-2-65-170-2201","pattern_id":"60101","stop_id":"0234-02","stop_name":"大島一丁目","next_stop_name":"大島一丁目","current_stop_name":null,"current_status":"IN_TRANSIT_TO","timestamp":1777641597,"feed_timestamp":1777641609,"source":"odpt"}},{"type":"Feature","id":"M467","geometry":{"type":"Point","coordinates":[139.82103,35.696182]},"properties":{"vehicle_id":"M467","route_id":"036","route_short_name":"都07","route_display_name":"都07 錦糸町駅前行","route_label":"都07","destination":"錦糸町駅前","trip_id":"60101-2-65-170-2151","pattern_id":"60101","stop_id":"2218-01","stop_name":"亀戸一丁目","next_stop_name":"亀戸一丁目","current_stop_name":null,"current_status":"IN_TRANSIT_TO","timestamp":1777641505,"feed_timestamp":1777641609,"source":"odpt"}},{"type":"Feature","id":"E440","geometry":{"type":"Point","coordinates":[139.775269,35.728657]},"properties":{"vehicle_id":"E440","route_id":"038","route_short_name":"都08（T08）","route_display_name":"都08（T08） 下谷警察署前行","route_label":"都08（T08）","destination":"下谷警察署前","trip_id":"52405-1-57-170-2218","pattern_id":"52405","stop_id":"1310-02","stop_name":"東日暮里五丁目","next_stop_name":"東日暮里五丁目","current_stop_name":null,"current_status":"IN_TRANSIT_TO","timestamp":1777641581,"feed_timestamp":1777641609,"source":"odpt"}},{"type":"Feature","id":"D305","geometry":{"type":"Point","coordinates":[139.797256,35.654156]},"properties":{"vehicle_id":"D305","route_id":"041","route_short_name":null,"route_display_name":null,"route_label":"041","destination":null,"trip_id":"","pattern_id":"","stop_id":"1025-11","stop_name":"豊洲駅前","next_stop_name":"豊洲駅前","current_stop_name":null,"current_status":"IN_TRANSIT_TO","timestamp":1777641562,"feed_timestamp":1777641609,"source":"odpt"}},{"type":"Feature","id":"F143","geometry":{"type":"Point","coordinates":[139.824127,35.658436]},"properties":{"vehicle_id":"F143","route_id":"045","route_short_name":"木11甲","route_display_name":"木11甲 新木場駅前（構内）行","route_label":"木11甲","destination":"新木場駅前（構内）","trip_id":"72009-1-81-170-2213","pattern_id":"72009","stop_id":"0717-01","stop_name":"新砂一丁目","next_stop_name":"新砂一丁目","current_stop_name":null,"current_status":"IN_TRANSIT_TO","timestamp":1777641542,"feed_timestamp":1777641609,"source":"odpt"}},{"type":"Feature","id":"W404","geometry":{"type":"Point","coordinates":[139.815552,35.691906]},"properties":{"vehicle_id":"W404","route_id":"046","route_short_name":"錦13","route_display_name":"錦13 豊洲駅前行","route_label":"錦13","destination":"豊洲駅前","trip_id":"72102-1-81-170-2215","pattern_id":"72102","stop_id":"1533-01","stop_name":"毛利二丁目","next_stop_name":"毛利二丁目","current_stop_name":null,"current_status":"IN_TRANSIT_TO","timestamp":1777641490,"feed_timestamp":1777641609,"source":"odpt"}},{"type":"Feature","id":"Y482","geometry":{"type":"Point","coordinates":[139.806488,35.661606]},"properties":{"vehicle_id":"Y482","route_id":"046","route_short_name":"錦13","route_display_name":"錦13 晴海埠頭行","route_label":"錦13","destination":"晴海埠頭","trip_id":"72112-1-81-170-2200","pattern_id":"72112","stop_id":"0594-02","stop_name":"塩浜二丁目","next_stop_name":"塩浜二丁目","current_stop_name":null,"current_status":"IN_TRANSIT_TO","timestamp":1777641547,"feed_timestamp":1777641609,"source":"odpt"}},{"type":"Feature","id":"Y478","geometry":{"type":"Point","coordinates":[139.810623,35.689278]},"properties":{"vehicle_id":"Y478","route_id":"046","route_short_name":"錦13","route_display_name":"錦13 錦糸町駅前行","route_label":"錦13","destination":"錦糸町駅前","trip_id":"72112-2-81-170-2143","pattern_id":"72112","stop_id":"0789-05","stop_name":"住吉一丁目","next_stop_name":"住吉一丁目","current_stop_name":null,"current_status":"IN_TRANSIT_TO","timestamp":1777641569,"feed_timestamp":1777641609,"source":"odpt"}},{"type":"Feature","id":"F653","geometry":{"type":"Point","coordinates":[139.788269,35.659458]},"properties":{"vehicle_id":"F653","route_id":"050","route_short_name":"東16","route_display_name":"東16 深川車庫前行","route_label":"東16","destination":"深川車庫前","trip_id":"73005-1-81-170-2155","pattern_id":"73005","stop_id":"2312-01","stop_name":"新月島公園前","next_stop_name":"新月島公園前","current_stop_name":null,"current_status":"IN_TRANSIT_TO","timestamp":1777641551,"feed_timestamp":1777641609,"source":"odpt"}},{"type":"Feature","id":"B778","geometry":{"type":"Point","coordinates":[139.776581,35.660614]},"properties":{"vehicle_id":"B778","route_id":"049","route_short_name":"東15","route_display_name":"東15 深川車庫前行","route_label":"東15","destination":"深川車庫前","trip_id":"72201-2-81-170-2200","pattern_id":"72201","stop_id":"0325-02","stop_name":"勝どき橋南詰","next_stop_name":"勝どき橋南詰","current_stop_name":null,"current_status":"IN_TRANSIT_TO","timestamp":1777641518,"feed_timestamp":1777641609,"source":"odpt"}},{"type":"Feature","id":"F144","geometry":{"type":"Point","coordinates":[139.807312,35.650135]},"properties":{"vehicle_id":"F144","route_id":"052","route_short_name":"門19","route_display_name":"門19 門前仲町行","route_label":"門19","destination":"門前仲町","trip_id":"72703-1-81-170-2210","pattern_id":"72703","stop_id":"0888-01","stop_name":"辰巳橋","next_stop_name":"辰巳橋","current_stop_name":null,"current_status":"IN_TRANSIT_TO","timestamp":1777641538,"feed_timestamp":1777641609,"source":"odpt"}},{"type":"Feature","id":"F145","geometry":{"type":"Point","coordinates":[139.798401,35.655632]},"properties":{"vehicle_id":"F145","route_id":"052","route_short_name":"門19","route_display_name":"門19 深川車庫前行","route_label":"門19","destination":"深川車庫前","trip_id":"72703-2-81-170-2209","pattern_id":"72703","stop_id":"1021-02","stop_name":"豊洲四丁目","next_stop_name":"豊洲四丁目","current_stop_name":null,"current_status":"IN_TRANSIT_TO","timestamp":1777641539,"feed_timestamp":1777641609,"source":"odpt"}},{"type":"Feature","id":"H972","geometry":{"type":"Point","coordinates":[139.864395,35.656593]},"properties":{"vehicle_id":"H972","route_id":"056","route_short_name":"西葛20甲","route_display_name":"西葛20甲 なぎさニュータウン行","route_label":"西葛20甲","destination":"なぎさニュータウン","trip_id":"69201-1-77-170-2215","pattern_id":"69201","stop_id":"1070-03","stop_name":"中葛西七丁目","next_stop_name":"中葛西七丁目","current_stop_name":null,"current_status":"IN_TRANSIT_TO","timestamp":1777641594,"feed_timestamp":1777641609,"source":"odpt"}},{"type":"Feature","id":"G733","geometry":{"type":"Point","coordinates":[139.863556,35.647778]},"properties":{"vehicle_id":"G733","route_id":"057","route_short_name":"西葛20乙","route_display_name":"西葛20乙 西葛西駅前行","route_label":"西葛20乙","destination":"西葛西駅前","trip_id":"69202-2-77-170-2213","pattern_id":"69202","stop_id":"2062-02","stop_name":"葛西トラックターミナル","next_stop_name":"葛西トラックターミナル","current_stop_name":null,"current_status":"IN_TRANSIT_TO","timestamp":1777641531,"feed_timestamp":1777641609,"source":"odpt"}},{"type":"Feature","id":"M194","geometry":{"type":"Point","coordinates":[139.840836,35.672909]},"properties":{"vehicle_id":"M194","route_id":"058","route_short_name":"亀21","route_display_name":"亀21 東陽町駅前行","route_label":"亀21","destination":"東陽町駅前","trip_id":"60001-2-85-170-2200","pattern_id":"60001","stop_id":"1297-01","stop_name":"東砂六丁目","next_stop_name":"東砂六丁目","current_stop_name":null,"current_status":"IN_TRANSIT_TO","timestamp":1777641480,"feed_timestamp":1777641609,"source":"odpt"}},{"type":"Feature","id":"B767","geometry":{"type":"Point","coordinates":[139.844833,35.683807]},"properties":{"vehicle_id":"B767","route_id":"059","route_short_name":"門21","route_display_name":"門21 東大島駅前行","route_label":"門21","destination":"東大島駅前","trip_id":"64602-2-69-170-2200","pattern_id":"64602","stop_id":"1293-01","stop_name":"東砂二丁目","next_stop_name":"東砂二丁目","current_stop_name":null,"current_status":"IN_TRANSIT_TO","timestamp":1777641505,"feed_timestamp":1777641609,"source":"odpt"}},{"type":"Feature","id":"V381","geometry":{"type":"Point","coordinates":[139.858215,35.679764]},"properties":{"vehicle_id":"V381","route_id":"060","route_short_name":"新小21","route_display_name":"新小21 新小岩駅前行","route_label":"新小21","destination":"新小岩駅前","trip_id":"68501-1-77-170-2144","pattern_id":"68501","stop_id":"0604-02","stop_name":"七軒町","next_stop_name":"七軒町","current_stop_name":null,"current_status":"IN_TRANSIT_TO","timestamp":1777641467,"feed_timestamp":1777641609,"source":"odpt"}},{"type":"Feature","id":"F153","geometry":{"type":"Point","coordinates":[139.867691,35.695301]},"properties":{"vehicle_id":"F153","route_id":"060","route_short_name":"新小21","route_display_name":"新小21 新小岩駅前行","route_label":"新小21","destination":"新小岩駅前","trip_id":"68501-1-77-170-2132","pattern_id":"68501","stop_id":"1281-01","stop_name":"東小松川二丁目","next_stop_name":"東小松川二丁目","current_stop_name":null,"current_status":"IN_TRANSIT_TO","timestamp":1777641519,"feed_timestamp":1777641609,"source":"odpt"}},{"type":"Feature","id":"K288","geometry":{"type":"Point","coordinates":[139.868027,35.702316]},"properties":{"vehicle_id":"K288","route_id":"060","route_short_name":"新小21","route_display_name":"新小21 西葛西駅前行","route_label":"新小21","destination":"西葛西駅前","trip_id":"68501-2-77-170-2157","pattern_id":"68501","stop_id":"0468-03","stop_name":"京葉交差点","next_stop_name":"京葉交差点","current_stop_name":null,"current_status":"IN_TRANSIT_TO","timestamp":1777641495,"feed_timestamp":1777641609,"source":"odpt"}},{"type":"Feature","id":"B777","geometry":{"type":"Point","coordinates":[139.856964,35.679379]},"properties":{"vehicle_id":"B777","route_id":"060","route_short_name":"新小21","route_display_name":"新小21 西葛西駅前行","route_label":"新小21","destination":"西葛西駅前","trip_id":"68501-2-77-170-2145","pattern_id":"68501","stop_id":"1424-02","stop_name":"棒茅場","next_stop_name":"棒茅場","current_stop_name":null,"current_status":"IN_TRANSIT_TO","timestamp":1777641531,"feed_timestamp":1777641609,"source":"odpt"}},{"type":"Feature","id":"F150","geometry":{"type":"Point","coordinates":[139.879715,35.647343]},"properties":{"vehicle_id":"F150","route_id":"061","route_short_name":"葛西21","route_display_name":"葛西21 コーシャハイム南葛西行","route_label":"葛西21","destination":"コーシャハイム南葛西","trip_id":"69302-1-77-170-2205","pattern_id":"69302","stop_id":"1111-03","stop_name":"なぎさニュータウン","next_stop_name":"なぎさニュータウン","current_stop_name":null,"current_status":"IN_TRANSIT_TO","timestamp":1777641450,"feed_timestamp":1777641609,"source":"odpt"}},{"type":"Feature","id":"E502","geometry":{"type":"Point","coordinates":[139.875717,35.646397]},"properties":{"vehicle_id":"E502","route_id":"061","route_short_name":"葛西21","route_display_name":"葛西21 葛西駅前行","route_label":"葛西21","destination":"葛西駅前","trip_id":"69309-2-77-170-2215","pattern_id":"69309","stop_id":"2274-01","stop_name":"南葛西会館前","next_stop_name":"南葛西会館前","current_stop_name":null,"current_status":"IN_TRANSIT_TO","timestamp":1777641493,"feed_timestamp":1777641609,"source":"odpt"}},{"type":"Feature","id":"Z534","geometry":{"type":"Point","coordinates":[139.793182,35.729195]},"properties":{"vehicle_id":"Z534","route_id":"062","route_short_name":"里22","route_display_name":"里22 南千住車庫前行","route_label":"里22","destination":"南千住車庫前","trip_id":"52104-2-57-170-2205","pattern_id":"52104","stop_id":"1495-04","stop_name":"三ノ輪二丁目","next_stop_name":"三ノ輪二丁目","current_stop_name":null,"current_status":"IN_TRANSIT_TO","timestamp":1777641571,"feed_timestamp":1777641609,"source":"odpt"}},{"type":"Feature","id":"A651","geometry":{"type":"Point","coordinates":[139.816193,35.68232]},"properties":{"vehicle_id":"A651","route_id":"063","route_short_name":"東22","route_display_name":"東22 東陽町駅前行","route_label":"東22","destination":"東陽町駅前","trip_id":"60202-1-65-170-2210","pattern_id":"60202","stop_id":"0192-04","stop_name":"扇橋二丁目","next_stop_name":"扇橋二丁目","current_stop_name":null,"current_status":"IN_TRANSIT_TO","timestamp":1777641522,"feed_timestamp":1777641609,"source":"odpt"}},{"type":"Feature","id":"G792","geometry":{"type":"Point","coordinates":[139.816223,35.671642]},"properties":{"vehicle_id":"G792","route_id":"063","route_short_name":"東22","route_display_name":"東22 錦糸町駅前行","route_label":"東22","destination":"錦糸町駅前","trip_id":"60202-2-65-170-2219","pattern_id":"60202","stop_id":"0491-02","stop_name":"江東区役所前","next_stop_name":"江東区役所前","current_stop_name":null,"current_status":"IN_TRANSIT_TO","timestamp":1777641595,"feed_timestamp":1777641609,"source":"odpt"}},{"type":"Feature","id":"G789","geometry":{"type":"Point","coordinates":[139.815536,35.689678]},"properties":{"vehicle_id":"G789","route_id":"063","route_short_name":"東22","route_display_name":"東22 錦糸町駅前行","route_label":"東22","destination":"錦糸町駅前","trip_id":"60202-2-65-170-2210","pattern_id":"60202","stop_id":"0787-02","stop_name":"住吉駅前","next_stop_name":"住吉駅前","current_stop_name":null,"current_status":"IN_TRANSIT_TO","timestamp":1777641580,"feed_timestamp":1777641609,"source":"odpt"}},{"type":"Feature","id":"C259","geometry":{"type":"Point","coordinates":[139.795624,35.672184]},"properties":{"vehicle_id":"C259","route_id":"063","route_short_name":"東22","route_display_name":"東22 錦糸町駅前行","route_label":"東22","destination":"錦糸町駅前","trip_id":"60204-2-65-170-2200","pattern_id":"60204","stop_id":"1544-03","stop_name":"門前仲町","next_stop_name":"門前仲町","current_stop_name":null,"current_status":"IN_TRANSIT_TO","timestamp":1777641562,"feed_timestamp":1777641609,"source":"odpt"}},{"type":"Feature","id":"E450","geometry":{"type":"Point","coordinates":[139.795349,35.711105]},"properties":{"vehicle_id":"E450","route_id":"070","route_short_name":"上23","route_display_name":"上23 東墨田二丁目行","route_label":"上23","destination":"東墨田二丁目","trip_id":"56205-1-61-170-2200","pattern_id":"56205","stop_id":"0032-01","stop_name":"浅草雷門","next_stop_name":"浅草雷門","current_stop_name":null,"current_status":"IN_TRANSIT_TO","timestamp":1777641444,"feed_timestamp":1777641609,"source":"odpt"}},{"type":"Feature","id":"B755","geometry":{"type":"Point","coordinates":[139.841568,35.742203]},"properties":{"vehicle_id":"B755","route_id":"071","route_short_name":"上23出入","route_display_name":"上23出入 青戸車庫前行","route_label":"上23出入","destination":"青戸車庫前","trip_id":"56207-1-61-170-2200","pattern_id":"56207","stop_id":"0154-02","stop_name":"梅田小学校前","next_stop_name":"梅田小学校前","current_stop_name":null,"current_status":"IN_TRANSIT_TO","timestamp":1777641586,"feed_timestamp":1777641609,"source":"odpt"}},{"type":"Feature","id":"K289","geometry":{"type":"Point","coordinates":[139.870605,35.696468]},"properties":{"vehicle_id":"K289","route_id":"068","route_short_name":"新小22","route_display_name":"新小22 葛西駅前行","route_label":"新小22","destination":"葛西駅前","trip_id":"68801-2-77-170-2145","pattern_id":"68801","stop_id":"1433-01","stop_name":"松江","next_stop_name":"松江","current_stop_name":null,"current_status":"IN_TRANSIT_TO","timestamp":1777641590,"feed_timestamp":1777641609,"source":"odpt"}},{"type":"Feature","id":"M471","geometry":{"type":"Point","coordinates":[139.844849,35.683208]},"properties":{"vehicle_id":"M471","route_id":"075","route_short_name":"亀24","route_display_name":"亀24 葛西橋行","route_label":"亀24","destination":"葛西橋","trip_id":"68101-2-77-170-2200","pattern_id":"68101","stop_id":"1293-02","stop_name":"東砂二丁目","next_stop_name":"東砂二丁目","current_stop_name":null,"current_status":"IN_TRANSIT_TO","timestamp":1777641551,"feed_timestamp":1777641609,"source":"odpt"}},{"type":"Feature","id":"G722","geometry":{"type":"Point","coordinates":[139.872635,35.653858]},"properties":{"vehicle_id":"G722","route_id":"076","route_short_name":"葛西24","route_display_name":"葛西24 なぎさニュータウン行","route_label":"葛西24","destination":"なぎさニュータウン","trip_id":"69101-1-77-170-2157","pattern_id":"69101","stop_id":"2031-02","stop_name":"葛西南高校入口","next_stop_name":"葛西南高校入口","current_stop_name":null,"current_status":"IN_TRANSIT_TO","timestamp":1777641496,"feed_timestamp":1777641609,"source":"odpt"}},{"type":"Feature","id":"C261","geometry":{"type":"Point","coordinates":[139.817535,35.69569]},"properties":{"vehicle_id":"C261","route_id":"078","route_short_name":"錦25","route_display_name":"錦25 錦糸町駅前行","route_label":"錦25","destination":"錦糸町駅前","trip_id":"68001-1-77-170-2140","pattern_id":"68001","stop_id":"0493-01","stop_name":"江東車庫前","next_stop_name":"江東車庫前","current_stop_name":null,"current_status":"IN_TRANSIT_TO","timestamp":1777641590,"feed_timestamp":1777641609,"source":"odpt"}},{"type":"Feature","id":"M470","geometry":{"type":"Point","coordinates":[139.86792,35.699444]},"properties":{"vehicle_id":"M470","route_id":"078","route_short_name":"錦25","route_display_name":"錦25 葛西駅前行","route_label":"錦25","destination":"葛西駅前","trip_id":"68001-2-77-170-2200","pattern_id":"68001","stop_id":"1280-03","stop_name":"東小松川一丁目","next_stop_name":"東小松川一丁目","current_stop_name":null,"current_status":"IN_TRANSIT_TO","timestamp":1777641548,"feed_timestamp":1777641609,"source":"odpt"}},{"type":"Feature","id":"E507","geometry":{"type":"Point","coordinates":[139.865173,35.68013]},"properties":{"vehicle_id":"E507","route_id":"078","route_short_name":"錦25","route_display_name":"錦25 葛西駅前行","route_label":"錦25","destination":"葛西駅前","trip_id":"68001-2-77-170-2148","pattern_id":"68001","stop_id":"1378-02","stop_name":"船堀中組","next_stop_name":"船堀中組","current_stop_name":null,"current_status":"IN_TRANSIT_TO","timestamp":1777641581,"feed_timestamp":1777641609,"source":"odpt"}},{"type":"Feature","id":"C263","geometry":{"type":"Point","coordinates":[139.839386,35.697403]},"properties":{"vehicle_id":"C263","route_id":"078","route_short_name":"錦25","route_display_name":"錦25 船堀駅前行","route_label":"錦25","destination":"船堀駅前","trip_id":"68002-2-77-170-2210","pattern_id":"68002","stop_id":"0374-01","stop_name":"亀戸九丁目","next_stop_name":"亀戸九丁目","current_stop_name":null,"current_status":"IN_TRANSIT_TO","timestamp":1777641563,"feed_timestamp":1777641609,"source":"odpt"}},{"type":"Feature","id":"F678","geometry":{"type":"Point","coordinates":[139.871048,35.675499]},"properties":{"vehicle_id":"F678","route_id":"078","route_short_name":"錦25","route_display_name":"錦25 東小松川車庫前行","route_label":"錦25","destination":"東小松川車庫前","trip_id":"68008-1-77-170-2212","pattern_id":"68008","stop_id":"0579-02","stop_name":"三角","next_stop_name":"三角","current_stop_name":null,"current_status":"IN_TRANSIT_TO","timestamp":1777641581,"feed_timestamp":1777641609,"source":"odpt"}},{"type":"Feature","id":"C273","geometry":{"type":"Point","coordinates":[139.840836,35.672909]},"properties":{"vehicle_id":"C273","route_id":"081","route_short_name":"秋26","route_display_name":"秋26 葛西駅前行","route_label":"秋26","destination":"葛西駅前","trip_id":"64101-2-69-170-2135","pattern_id":"64101","stop_id":"1297-01","stop_name":"東砂六丁目","next_stop_name":"東砂六丁目","current_stop_name":null,"current_status":"IN_TRANSIT_TO","timestamp":1777641551,"feed_timestamp":1777641609,"source":"odpt"}},{"type":"Feature","id":"E463","geometry":{"type":"Point","coordinates":[139.839386,35.697403]},"properties":{"vehicle_id":"E463","route_id":"082","route_short_name":"亀26","route_display_name":"亀26 今井行","route_label":"亀26","destination":"今井","trip_id":"64001-2-69-170-2210","pattern_id":"64001","stop_id":"0374-01","stop_name":"亀戸九丁目","next_stop_name":"亀戸九丁目","current_stop_name":null,"current_status":"IN_TRANSIT_TO","timestamp":1777641515,"feed_timestamp":1777641609,"source":"odpt"}},{"type":"Feature","id":"Z559","geometry":{"type":"Point","coordinates":[139.866699,35.689281]},"properties":{"vehicle_id":"Z559","route_id":"084","route_short_name":"錦27－2","route_display_name":"錦27－2 船堀駅前行","route_label":"錦27－2","destination":"船堀駅前","trip_id":"61101-1-77-170-2157","pattern_id":"61101","stop_id":"1434-02","stop_name":"松江第一中学校前","next_stop_name":"松江第一中学校前","current_stop_name":null,"current_status":"IN_TRANSIT_TO","timestamp":1777641541,"feed_timestamp":1777641609,"source":"odpt"}},{"type":"Feature","id":"G730","geometry":{"type":"Point","coordinates":[139.854004,35.653484]},"properties":{"vehicle_id":"G730","route_id":"085","route_short_name":"西葛27","route_display_name":"西葛27 西葛西駅前行","route_label":"西葛27","destination":"西葛西駅前","trip_id":"68602-2-77-170-2215","pattern_id":"68602","stop_id":"2449-03","stop_name":"東京臨海病院前","next_stop_name":"東京臨海病院前","current_stop_name":null,"current_status":"IN_TRANSIT_TO","timestamp":1777641459,"feed_timestamp":1777641609,"source":"odpt"}},{"type":"Feature","id":"A601","geometry":{"type":"Point","coordinates":[139.854034,35.653702]},"properties":{"vehicle_id":"A601","route_id":"085","route_short_name":"西葛27","route_display_name":"西葛27 臨海町二丁目団地前行","route_label":"西葛27","destination":"臨海町二丁目団地前","trip_id":"68608-1-77-170-2212","pattern_id":"68608","stop_id":"2449-02","stop_name":"東京臨海病院前","next_stop_name":"東京臨海病院前","current_stop_name":null,"current_status":"IN_TRANSIT_TO","timestamp":1777641580,"feed_timestamp":1777641609,"source":"odpt"}},{"type":"Feature","id":"L354","geometry":{"type":"Point","coordinates":[139.826614,35.687431]},"properties":{"vehicle_id":"L354","route_id":"087","route_short_name":"両28","route_display_name":"両28 葛西橋行","route_label":"両28","destination":"葛西橋","trip_id":"64501-2-69-170-2200","pattern_id":"64501","stop_id":"0234-01","stop_name":"大島一丁目","next_stop_name":"大島一丁目","current_stop_name":null,"current_status":"IN_TRANSIT_TO","timestamp":1777641544,"feed_timestamp":1777641609,"source":"odpt"}},{"type":"Feature","id":"E510","geometry":{"type":"Point","coordinates":[139.829269,35.683853]},"properties":{"vehicle_id":"E510","route_id":"089","route_short_name":"錦28","route_display_name":"錦28 錦糸町駅前行","route_label":"錦28","destination":"錦糸町駅前","trip_id":"68701-1-65-170-2210","pattern_id":"68701","stop_id":"2459-02","stop_name":"小名木川小学校入口","next_stop_name":"小名木川小学校入口","current_stop_name":null,"current_status":"IN_TRANSIT_TO","timestamp":1777641559,"feed_timestamp":1777641609,"source":"odpt"}},{"type":"Feature","id":"W438","geometry":{"type":"Point","coordinates":[139.82132,35.689262]},"properties":{"vehicle_id":"W438","route_id":"089","route_short_name":"錦28","route_display_name":"錦28 東大島駅前行","route_label":"錦28","destination":"東大島駅前","trip_id":"68701-2-65-170-2212","pattern_id":"68701","stop_id":"0235-02","stop_name":"大島二丁目","next_stop_name":"大島二丁目","current_stop_name":null,"current_status":"IN_TRANSIT_TO","timestamp":1777641482,"feed_timestamp":1777641609,"source":"odpt"}},{"type":"Feature","id":"D315","geometry":{"type":"Point","coordinates":[139.854034,35.670708]},"properties":{"vehicle_id":"D315","route_id":"092","route_short_name":"亀29","route_display_name":"亀29 西葛西駅前行","route_label":"亀29","destination":"西葛西駅前","trip_id":"68202-2-77-170-2200","pattern_id":"68202","stop_id":"0314-01","stop_name":"葛西橋東詰","next_stop_name":"葛西橋東詰","current_stop_name":null,"current_status":"IN_TRANSIT_TO","timestamp":1777641576,"feed_timestamp":1777641609,"source":"odpt"}},{"type":"Feature","id":"K271","geometry":{"type":"Point","coordinates":[139.798279,35.685902]},"properties":{"vehicle_id":"K271","route_id":"093","route_short_name":"門33","route_display_name":"門33 亀戸駅前行","route_label":"門33","destination":"亀戸駅前","trip_id":"60301-2-65-170-2200","pattern_id":"60301","stop_id":"0871-02","stop_name":"高橋","next_stop_name":"高橋","current_stop_name":null,"current_status":"IN_TRANSIT_TO","timestamp":1777641577,"feed_timestamp":1777641609,"source":"odpt"}},{"type":"Feature","id":"H966","geometry":{"type":"Point","coordinates":[139.825882,35.704384]},"properties":{"vehicle_id":"H966","route_id":"093","route_short_name":"門33","route_display_name":"門33 亀戸駅前行","route_label":"門33","destination":"亀戸駅前","trip_id":"60301-2-65-170-2134","pattern_id":"60301","stop_id":"1371-02","stop_name":"福神橋","next_stop_name":"福神橋","current_stop_name":null,"current_status":"IN_TRANSIT_TO","timestamp":1777641559,"feed_timestamp":1777641609,"source":"odpt"}},{"type":"Feature","id":"D324","geometry":{"type":"Point","coordinates":[139.814362,35.703869]},"properties":{"vehicle_id":"D324","route_id":"094","route_short_name":"錦37","route_display_name":"錦37 青戸車庫前行","route_label":"錦37","destination":"青戸車庫前","trip_id":"56101-2-61-170-2215","pattern_id":"56101","stop_id":"1579-02","stop_name":"横川三丁目","next_stop_name":"横川三丁目","current_stop_name":null,"current_status":"IN_TRANSIT_TO","timestamp":1777641542,"feed_timestamp":1777641609,"source":"odpt"}},{"type":"Feature","id":"K270","geometry":{"type":"Point","coordinates":[139.862976,35.762135]},"properties":{"vehicle_id":"K270","route_id":"096","route_short_name":"草39","route_display_name":"草39 青戸車庫前行","route_label":"草39","destination":"青戸車庫前","trip_id":"56003-2-61-170-2213","pattern_id":"56003","stop_id":"0365-01","stop_name":"亀有警察署前","next_stop_name":"亀有警察署前","current_stop_name":null,"current_status":"IN_TRANSIT_TO","timestamp":1777641529,"feed_timestamp":1777641609,"source":"odpt"}},{"type":"Feature","id":"K269","geometry":{"type":"Point","coordinates":[139.82547,35.729118]},"properties":{"vehicle_id":"K269","route_id":"096","route_short_name":"草39","route_display_name":"草39 青戸車庫前行","route_label":"草39","destination":"青戸車庫前","trip_id":"56004-2-61-170-2200","pattern_id":"56004","stop_id":"1589-01","stop_name":"四ツ木橋南詰","next_stop_name":"四ツ木橋南詰","current_stop_name":null,"current_status":"IN_TRANSIT_TO","timestamp":1777641572,"feed_timestamp":1777641609,"source":"odpt"}},{"type":"Feature","id":"F603","geometry":{"type":"Point","coordinates":[139.775742,35.776386]},"properties":{"vehicle_id":"F603","route_id":"098","route_short_name":"王40出入","route_display_name":"王40出入 北車庫前行","route_label":"王40出入","destination":"北車庫前","trip_id":"40009-2-49-170-2214","pattern_id":"40009","stop_id":"2151-02","stop_name":"足立第五中学校前","next_stop_name":"足立第五中学校前","current_stop_name":null,"current_status":"IN_TRANSIT_TO","timestamp":1777641599,"feed_timestamp":1777641609,"source":"odpt"}},{"type":"Feature","id":"E517","geometry":{"type":"Point","coordinates":[139.755127,35.762371]},"properties":{"vehicle_id":"E517","route_id":"098","route_short_name":"王40出入","route_display_name":"王40出入 北車庫前行","route_label":"王40出入","destination":"北車庫前","trip_id":"40009-2-49-170-2202","pattern_id":"40009","stop_id":"1500-02","stop_name":"宮城二丁目","next_stop_name":"宮城二丁目","current_stop_name":null,"current_status":"IN_TRANSIT_TO","timestamp":1777641600,"feed_timestamp":1777641609,"source":"odpt"}},{"type":"Feature","id":"C243","geometry":{"type":"Point","coordinates":[139.740158,35.764042]},"properties":{"vehicle_id":"C243","route_id":"100","route_short_name":"王41","route_display_name":"王41 新田一丁目行","route_label":"王41","destination":"新田一丁目","trip_id":"40101-1-49-170-2212","pattern_id":"40101","stop_id":"1006-02","stop_name":"豊島八丁目","next_stop_name":"豊島八丁目","current_stop_name":null,"current_status":"IN_TRANSIT_TO","timestamp":1777641592,"feed_timestamp":1777641609,"source":"odpt"}},{"type":"Feature","id":"E419","geometry":{"type":"Point","coordinates":[139.738815,35.754341]},"properties":{"vehicle_id":"E419","route_id":"099","route_short_name":"王40甲","route_display_name":"王40甲 西新井駅前行","route_label":"王40甲","destination":"西新井駅前","trip_id":"40001-1-49-170-2200","pattern_id":"40001","stop_id":"0196-12","stop_name":"王子駅前","next_stop_name":"王子駅前","current_stop_name":null,"current_status":"IN_TRANSIT_TO","timestamp":1777641541,"feed_timestamp":1777641609,"source":"odpt"}},{"type":"Feature","id":"F608","geometry":{"type":"Point","coordinates":[139.756226,35.762096]},"properties":{"vehicle_id":"F608","route_id":"099","route_short_name":"王40甲","route_display_name":"王40甲 西新井駅前行","route_label":"王40甲","destination":"西新井駅前","trip_id":"40001-1-49-170-2151","pattern_id":"40001","stop_id":"1500-03","stop_name":"宮城二丁目","next_stop_name":"宮城二丁目","current_stop_name":null,"current_status":"IN_TRANSIT_TO","timestamp":1777641599,"feed_timestamp":1777641609,"source":"odpt"}},{"type":"Feature","id":"F612","geometry":{"type":"Point","coordinates":[139.763351,35.768951]},"properties":{"vehicle_id":"F612","route_id":"099","route_short_name":"王40甲","route_display_name":"王40甲 西新井駅前行","route_label":"王40甲","destination":"西新井駅前","trip_id":"40001-1-49-170-2142","pattern_id":"40001","stop_id":"0066-02","stop_name":"荒川土手操車所前","next_stop_name":"荒川土手操車所前","current_stop_name":null,"current_status":"IN_TRANSIT_TO","timestamp":1777641531,"feed_timestamp":1777641609,"source":"odpt"}},{"type":"Feature","id":"F614","geometry":{"type":"Point","coordinates":[139.736359,35.749992]},"properties":{"vehicle_id":"F614","route_id":"099","route_short_name":"王40甲","route_display_name":"王40甲 池袋駅東口行","route_label":"王40甲","destination":"池袋駅東口","trip_id":"40001-2-49-170-2150","pattern_id":"40001","stop_id":"0046-01","stop_name":"飛鳥山","next_stop_name":"飛鳥山","current_stop_name":null,"current_status":"IN_TRANSIT_TO","timestamp":1777641587,"feed_timestamp":1777641609,"source":"odpt"}},{"type":"Feature","id":"G750","geometry":{"type":"Point","coordinates":[139.714096,35.731541]},"properties":{"vehicle_id":"G750","route_id":"099","route_short_name":"王40甲","route_display_name":"王40甲 豊島五丁目団地行","route_label":"王40甲","destination":"豊島五丁目団地","trip_id":"40006-1-49-170-2217","pattern_id":"40006","stop_id":"2405-10","stop_name":"池袋駅東口（⑩のりば）","next_stop_name":"池袋駅東口（⑩のりば）","current_stop_name":null,"current_status":"IN_TRANSIT_TO","timestamp":1777641560,"feed_timestamp":1777641609,"source":"odpt"}},{"type":"Feature","id":"B744","geometry":{"type":"Point","coordinates":[139.725952,35.741898]},"properties":{"vehicle_id":"B744","route_id":"099","route_short_name":"王40甲","route_display_name":"王40甲 江北四丁目行","route_label":"王40甲","destination":"江北四丁目","trip_id":"40014-1-49-170-2209","pattern_id":"40014","stop_id":"1402-01","stop_name":"堀割","next_stop_name":"堀割","current_stop_name":null,"current_status":"IN_TRANSIT_TO","timestamp":1777641558,"feed_timestamp":1777641609,"source":"odpt"}},{"type":"Feature","id":"D347","geometry":{"type":"Point","coordinates":[139.783157,35.719978]},"properties":{"vehicle_id":"D347","route_id":"101","route_short_name":"草41","route_display_name":"草41 足立梅田町行","route_label":"草41","destination":"足立梅田町","trip_id":"48201-2-53-170-2210","pattern_id":"48201","stop_id":"0121-02","stop_name":"入谷鬼子母神","next_stop_name":"入谷鬼子母神","current_stop_name":null,"current_status":"IN_TRANSIT_TO","timestamp":1777641519,"feed_timestamp":1777641609,"source":"odpt"}},{"type":"Feature","id":"M416","geometry":{"type":"Point","coordinates":[139.783325,35.747074]},"properties":{"vehicle_id":"M416","route_id":"101","route_short_name":"草41","route_display_name":"草41 足立梅田町行","route_label":"草41","destination":"足立梅田町","trip_id":"48201-2-53-170-2147","pattern_id":"48201","stop_id":"0114-01","stop_name":"一本松","next_stop_name":"一本松","current_stop_name":null,"current_status":"IN_TRANSIT_TO","timestamp":1777641545,"feed_timestamp":1777641609,"source":"odpt"}},{"type":"Feature","id":"B795","geometry":{"type":"Point","coordinates":[139.78685,35.697952]},"properties":{"vehicle_id":"B795","route_id":"102","route_short_name":"東42－1","route_display_name":"東42－1 東京駅八重洲口行","route_label":"東42－1","destination":"東京駅八重洲口","trip_id":"52201-1-57-170-2200","pattern_id":"52201","stop_id":"0037-03","stop_name":"浅草橋駅前","next_stop_name":"浅草橋駅前","current_stop_name":null,"current_status":"IN_TRANSIT_TO","timestamp":1777641532,"feed_timestamp":1777641609,"source":"odpt"}},{"type":"Feature","id":"G773","geometry":{"type":"Point","coordinates":[139.774063,35.683308]},"properties":{"vehicle_id":"G773","route_id":"102","route_short_name":"東42－1","route_display_name":"東42－1 南千住車庫前行","route_label":"東42－1","destination":"南千住車庫前","trip_id":"52201-2-57-170-2212","pattern_id":"52201","stop_id":"1185-01","stop_name":"日本橋","next_stop_name":"日本橋","current_stop_name":null,"current_status":"IN_TRANSIT_TO","timestamp":1777641594,"feed_timestamp":1777641609,"source":"odpt"}},{"type":"Feature","id":"F674","geometry":{"type":"Point","coordinates":[139.768829,35.742149]},"properties":{"vehicle_id":"F674","route_id":"107","route_short_name":"端44","route_display_name":"端44 北千住駅前行","route_label":"端44","destination":"北千住駅前","trip_id":"48401-2-53-170-2210","pattern_id":"48401","stop_id":"0019-02","stop_name":"赤土小学校前","next_stop_name":"赤土小学校前","current_stop_name":null,"current_status":"IN_TRANSIT_TO","timestamp":1777641554,"feed_timestamp":1777641609,"source":"odpt"}},{"type":"Feature","id":"K245","geometry":{"type":"Point","coordinates":[139.799377,35.750957]},"properties":{"vehicle_id":"K245","route_id":"107","route_short_name":"端44","route_display_name":"端44 北千住駅前行","route_label":"端44","destination":"北千住駅前","trip_id":"48401-2-53-170-2151","pattern_id":"48401","stop_id":"0820-04","stop_name":"千住二丁目","next_stop_name":"千住二丁目","current_stop_name":null,"current_status":"IN_TRANSIT_TO","timestamp":1777641452,"feed_timestamp":1777641609,"source":"odpt"}},{"type":"Feature","id":"F613","geometry":{"type":"Point","coordinates":[139.760849,35.756397]},"properties":{"vehicle_id":"F613","route_id":"105","route_short_name":"東43","route_display_name":"東43 荒川土手行","route_label":"東43","destination":"荒川土手","trip_id":"40402-2-49-170-2135","pattern_id":"40402","stop_id":"0745-01","stop_name":"小台二丁目","next_stop_name":"小台二丁目","current_stop_name":null,"current_status":"IN_TRANSIT_TO","timestamp":1777641538,"feed_timestamp":1777641609,"source":"odpt"}},{"type":"Feature","id":"H899","geometry":{"type":"Point","coordinates":[139.760712,35.738754]},"properties":{"vehicle_id":"H899","route_id":"105","route_short_name":"東43","route_display_name":"東43 荒川土手行","route_label":"東43","destination":"荒川土手","trip_id":"40404-2-49-170-2215","pattern_id":"40404","stop_id":"0898-02","stop_name":"田端駅前","next_stop_name":"田端駅前","current_stop_name":null,"current_status":"IN_TRANSIT_TO","timestamp":1777641546,"feed_timestamp":1777641609,"source":"odpt"}},{"type":"Feature","id":"C250","geometry":{"type":"Point","coordinates":[139.801666,35.734863]},"properties":{"vehicle_id":"C250","route_id":"109","route_short_name":"上46","route_display_name":"上46 南千住車庫前行","route_label":"上46","destination":"南千住車庫前","trip_id":"52004-2-57-170-2218","pattern_id":"52004","stop_id":"2574-01","stop_name":"ドナウ通り","next_stop_name":"ドナウ通り","current_stop_name":null,"current_status":"IN_TRANSIT_TO","timestamp":1777641551,"feed_timestamp":1777641609,"source":"odpt"}},{"type":"Feature","id":"B700","geometry":{"type":"Point","coordinates":[139.791946,35.711918]},"properties":{"vehicle_id":"B700","route_id":"109","route_short_name":"上46","route_display_name":"上46 南千住車庫前行","route_label":"上46","destination":"南千住車庫前","trip_id":"52005-2-57-170-2205","pattern_id":"52005","stop_id":"0038-01","stop_name":"浅草一丁目","next_stop_name":"浅草一丁目","current_stop_name":null,"current_status":"IN_TRANSIT_TO","timestamp":1777641563,"feed_timestamp":1777641609,"source":"odpt"}},{"type":"Feature","id":"H955","geometry":{"type":"Point","coordinates":[139.803482,35.772774]},"properties":{"vehicle_id":"H955","route_id":"110","route_short_name":"北47","route_display_name":"北47 北千住駅前行","route_label":"北47","destination":"北千住駅前","trip_id":"48103-1-53-170-2201","pattern_id":"48103","stop_id":"1568-02","stop_name":"弥生町","next_stop_name":"弥生町","current_stop_name":null,"current_status":"IN_TRANSIT_TO","timestamp":1777641593,"feed_timestamp":1777641609,"source":"odpt"}},{"type":"Feature","id":"H954","geometry":{"type":"Point","coordinates":[139.803116,35.775883]},"properties":{"vehicle_id":"H954","route_id":"110","route_short_name":"北47","route_display_name":"北47 竹の塚駅前行","route_label":"北47","destination":"竹の塚駅前","trip_id":"48103-2-53-170-2205","pattern_id":"48103","stop_id":"0051-01","stop_name":"足立区役所前","next_stop_name":"足立区役所前","current_stop_name":null,"current_status":"IN_TRANSIT_TO","timestamp":1777641561,"feed_timestamp":1777641609,"source":"odpt"}},{"type":"Feature","id":"C233","geometry":{"type":"Point","coordinates":[139.803177,35.782391]},"properties":{"vehicle_id":"C233","route_id":"110","route_short_name":"北47","route_display_name":"北47 千住車庫前行","route_label":"北47","destination":"千住車庫前","trip_id":"48107-1-53-170-2213","pattern_id":"48107","stop_id":"0642-02","stop_name":"島根町","next_stop_name":"島根町","current_stop_name":null,"current_status":"IN_TRANSIT_TO","timestamp":1777641546,"feed_timestamp":1777641609,"source":"odpt"}},{"type":"Feature","id":"D903","geometry":{"type":"Point","coordinates":[139.773682,35.699081]},"properties":{"vehicle_id":"D903","route_id":"117","route_short_name":"茶51","route_display_name":"茶51 駒込駅南口行","route_label":"茶51","destination":"駒込駅南口","trip_id":"36302-2-45-170-2215","pattern_id":"36302","stop_id":"0027-01","stop_name":"秋葉原駅前","next_stop_name":"秋葉原駅前","current_stop_name":null,"current_status":"IN_TRANSIT_TO","timestamp":1777641306,"feed_timestamp":1777641609,"source":"odpt"}},{"type":"Feature","id":"F599","geometry":{"type":"Point","coordinates":[139.748657,35.770046]},"properties":{"vehicle_id":"F599","route_id":"118","route_short_name":"王55","route_display_name":"王55 新田一丁目行","route_label":"王55","destination":"新田一丁目","trip_id":"40804-1-49-170-2206","pattern_id":"40804","stop_id":"2556-02","stop_name":"ハートアイランド東","next_stop_name":"ハートアイランド東","current_stop_name":null,"current_status":"IN_TRANSIT_TO","timestamp":1777641554,"feed_timestamp":1777641609,"source":"odpt"}},{"type":"Feature","id":"E424","geometry":{"type":"Point","coordinates":[139.736893,35.762756]},"properties":{"vehicle_id":"E424","route_id":"118","route_short_name":"王55","route_display_name":"王55 王子駅前行","route_label":"王55","destination":"王子駅前","trip_id":"40806-3-49-170-2153","pattern_id":"40806","stop_id":"0200-01","stop_name":"王子四丁目","next_stop_name":"王子四丁目","current_stop_name":null,"current_status":"IN_TRANSIT_TO","timestamp":1777641576,"feed_timestamp":1777641609,"source":"odpt"}},{"type":"Feature","id":"M403","geometry":{"type":"Point","coordinates":[139.737152,35.755672]},"properties":{"vehicle_id":"M403","route_id":"118","route_short_name":"王55","route_display_name":"王55 新田二丁目行","route_label":"王55","destination":"新田二丁目","trip_id":"40809-1-49-170-2218","pattern_id":"40809","stop_id":"0198-02","stop_name":"王子二丁目","next_stop_name":"王子二丁目","current_stop_name":null,"current_status":"IN_TRANSIT_TO","timestamp":1777641598,"feed_timestamp":1777641609,"source":"odpt"}},{"type":"Feature","id":"D351","geometry":{"type":"Point","coordinates":[139.739136,35.772892]},"properties":{"vehicle_id":"D351","route_id":"116","route_short_name":"王49","route_display_name":"王49 千住車庫前行","route_label":"王49","destination":"千住車庫前","trip_id":"48001-2-53-170-2210","pattern_id":"48001","stop_id":"0723-03","stop_name":"環七新田","next_stop_name":"環七新田","current_stop_name":null,"current_status":"IN_TRANSIT_TO","timestamp":1777641560,"feed_timestamp":1777641609,"source":"odpt"}},{"type":"Feature","id":"G753","geometry":{"type":"Point","coordinates":[139.732666,35.777969]},"properties":{"vehicle_id":"G753","route_id":"119","route_short_name":"王57","route_display_name":"王57 豊島五丁目団地行","route_label":"王57","destination":"豊島五丁目団地","trip_id":"40301-1-49-170-2212","pattern_id":"40301","stop_id":"0663-01","stop_name":"志茂一丁目","next_stop_name":"志茂一丁目","current_stop_name":null,"current_status":"IN_TRANSIT_TO","timestamp":1777641525,"feed_timestamp":1777641609,"source":"odpt"}},{"type":"Feature","id":"G754","geometry":{"type":"Point","coordinates":[139.738708,35.753902]},"properties":{"vehicle_id":"G754","route_id":"119","route_short_name":"王57","route_display_name":"王57 赤羽駅東口行","route_label":"王57","destination":"赤羽駅東口","trip_id":"40301-2-49-170-2211","pattern_id":"40301","stop_id":"0196-13","stop_name":"王子駅前","next_stop_name":"王子駅前","current_stop_name":null,"current_status":"IN_TRANSIT_TO","timestamp":1777641492,"feed_timestamp":1777641609,"source":"odpt"}},{"type":"Feature","id":"M423","geometry":{"type":"Point","coordinates":[139.725082,35.696049]},"properties":{"vehicle_id":"M423","route_id":"122","route_short_name":"白61","route_display_name":"白61 練馬車庫前行","route_label":"白61","destination":"練馬車庫前","trip_id":"44201-2-37-170-2200","pattern_id":"44201","stop_id":"1547-01","stop_name":"薬王寺町","next_stop_name":"薬王寺町","current_stop_name":null,"current_status":"IN_TRANSIT_TO","timestamp":1777641576,"feed_timestamp":1777641609,"source":"odpt"}},{"type":"Feature","id":"K253","geometry":{"type":"Point","coordinates":[139.702576,35.7225]},"properties":{"vehicle_id":"K253","route_id":"122","route_short_name":"白61","route_display_name":"白61 練馬車庫前行","route_label":"白61","destination":"練馬車庫前","trip_id":"44201-2-37-170-2144","pattern_id":"44201","stop_id":"0647-01","stop_name":"下落合三丁目","next_stop_name":"下落合三丁目","current_stop_name":null,"current_status":"IN_TRANSIT_TO","timestamp":1777641545,"feed_timestamp":1777641609,"source":"odpt"}},{"type":"Feature","id":"F579","geometry":{"type":"Point","coordinates":[139.668228,35.737595]},"properties":{"vehicle_id":"F579","route_id":"122","route_short_name":"白61","route_display_name":"白61 練馬車庫前行","route_label":"白61","destination":"練馬車庫前","trip_id":"44201-2-37-170-2128","pattern_id":"44201","stop_id":"1516-02","stop_name":"武蔵大学前","next_stop_name":"武蔵大学前","current_stop_name":null,"current_status":"IN_TRANSIT_TO","timestamp":1777641577,"feed_timestamp":1777641609,"source":"odpt"}},{"type":"Feature","id":"H874","geometry":{"type":"Point","coordinates":[139.750015,35.732574]},"properties":{"vehicle_id":"H874","route_id":"120","route_short_name":"上58","route_display_name":"上58 早稲田行","route_label":"上58","destination":"早稲田","trip_id":"20101-2-33-170-2201","pattern_id":"20101","stop_id":"0359-02","stop_name":"上富士前","next_stop_name":"上富士前","current_stop_name":null,"current_status":"IN_TRANSIT_TO","timestamp":1777641576,"feed_timestamp":1777641609,"source":"odpt"}},{"type":"Feature","id":"G801","geometry":{"type":"Point","coordinates":[139.760223,35.724957]},"properties":{"vehicle_id":"G801","route_id":"126","route_short_name":"草63","route_display_name":"草63 池袋駅東口行","route_label":"草63","destination":"池袋駅東口","trip_id":"36002-2-45-170-2145","pattern_id":"36002","stop_id":"0544-01","stop_name":"千駄木一丁目","next_stop_name":"千駄木一丁目","current_stop_name":null,"current_status":"IN_TRANSIT_TO","timestamp":1777641572,"feed_timestamp":1777641609,"source":"odpt"}},{"type":"Feature","id":"E417","geometry":{"type":"Point","coordinates":[139.791061,35.729424]},"properties":{"vehicle_id":"E417","route_id":"126","route_short_name":"草63","route_display_name":"草63 巣鴨駅前行","route_label":"草63","destination":"巣鴨駅前","trip_id":"36004-2-45-170-2205","pattern_id":"36004","stop_id":"1493-01","stop_name":"三ノ輪駅前","next_stop_name":"三ノ輪駅前","current_stop_name":null,"current_status":"IN_TRANSIT_TO","timestamp":1777641564,"feed_timestamp":1777641609,"source":"odpt"}},{"type":"Feature","id":"A619","geometry":{"type":"Point","coordinates":[139.719177,35.735809]},"properties":{"vehicle_id":"A619","route_id":"126","route_short_name":"草63","route_display_name":"草63 とげぬき地蔵前行","route_label":"草63","destination":"とげぬき地蔵前","trip_id":"36414-1-45-170-2215","pattern_id":"36414","stop_id":"0342-01","stop_name":"上池袋一丁目","next_stop_name":"上池袋一丁目","current_stop_name":null,"current_status":"IN_TRANSIT_TO","timestamp":1777641572,"feed_timestamp":1777641609,"source":"odpt"}},{"type":"Feature","id":"Z504","geometry":{"type":"Point","coordinates":[139.712097,35.70126]},"properties":{"vehicle_id":"Z504","route_id":"125","route_short_name":"橋63","route_display_name":"橋63 小滝橋車庫前行","route_label":"橋63","destination":"小滝橋車庫前","trip_id":"16401-2-29-170-2145","pattern_id":"16401","stop_id":"2578-02","stop_name":"新宿ここ・から広場前","next_stop_name":"新宿ここ・から広場前","current_stop_name":null,"current_status":"IN_TRANSIT_TO","timestamp":1777641547,"feed_timestamp":1777641609,"source":"odpt"}},{"type":"Feature","id":"A613","geometry":{"type":"Point","coordinates":[139.738586,35.753704]},"properties":{"vehicle_id":"A613","route_id":"128","route_short_name":"草64","route_display_name":"草64 池袋駅東口行","route_label":"草64","destination":"池袋駅東口","trip_id":"36402-2-45-170-2140","pattern_id":"36402","stop_id":"0196-14","stop_name":"王子駅前","next_stop_name":"王子駅前","current_stop_name":null,"current_status":"IN_TRANSIT_TO","timestamp":1777641594,"feed_timestamp":1777641609,"source":"odpt"}},{"type":"Feature","id":"C223","geometry":{"type":"Point","coordinates":[139.784073,35.734814]},"properties":{"vehicle_id":"C223","route_id":"128","route_short_name":"草64","route_display_name":"草64 とげぬき地蔵前行","route_label":"草64","destination":"とげぬき地蔵前","trip_id":"36405-2-45-170-2200","pattern_id":"36405","stop_id":"0064-02","stop_name":"荒川区役所前","next_stop_name":"荒川区役所前","current_stop_name":null,"current_status":"IN_TRANSIT_TO","timestamp":1777641546,"feed_timestamp":1777641609,"source":"odpt"}},{"type":"Feature","id":"Z548","geometry":{"type":"Point","coordinates":[139.735214,35.709141]},"properties":{"vehicle_id":"Z548","route_id":"127","route_short_name":"飯64","route_display_name":"飯64 小滝橋車庫前行","route_label":"飯64","destination":"小滝橋車庫前","trip_id":"16001-3-29-170-2200","pattern_id":"16001","stop_id":"0091-01","stop_name":"石切橋","next_stop_name":"石切橋","current_stop_name":null,"current_status":"IN_TRANSIT_TO","timestamp":1777641581,"feed_timestamp":1777641609,"source":"odpt"}},{"type":"Feature","id":"B722","geometry":{"type":"Point","coordinates":[139.744339,35.703259]},"properties":{"vehicle_id":"B722","route_id":"127","route_short_name":"飯64","route_display_name":"飯64 小滝橋車庫前行","route_label":"飯64","destination":"小滝橋車庫前","trip_id":"16001-3-29-170-2136","pattern_id":"16001","stop_id":"0079-01","stop_name":"飯田橋","next_stop_name":"飯田橋","current_stop_name":null,"current_status":"IN_TRANSIT_TO","timestamp":1777641557,"feed_timestamp":1777641609,"source":"odpt"}},{"type":"Feature","id":"C212","geometry":{"type":"Point","coordinates":[139.71582,35.70961]},"properties":{"vehicle_id":"C212","route_id":"127","route_short_name":"飯64","route_display_name":"飯64 早稲田行","route_label":"飯64","destination":"早稲田","trip_id":"16003-1-29-170-2209","pattern_id":"16003","stop_id":"1174-04","stop_name":"西早稲田","next_stop_name":"西早稲田","current_stop_name":null,"current_status":"IN_TRANSIT_TO","timestamp":1777641584,"feed_timestamp":1777641609,"source":"odpt"}},{"type":"Feature","id":"D923","geometry":{"type":"Point","coordinates":[139.656693,35.682892]},"properties":{"vehicle_id":"D923","route_id":"130","route_short_name":"渋66","route_display_name":"渋66 杉並車庫前行","route_label":"渋66","destination":"杉並車庫前","trip_id":"24203-2-21-170-2146","pattern_id":"24203","stop_id":"1390-01","stop_name":"方南八幡通り","next_stop_name":"方南八幡通り","current_stop_name":null,"current_status":"IN_TRANSIT_TO","timestamp":1777641532,"feed_timestamp":1777641609,"source":"odpt"}},{"type":"Feature","id":"K225","geometry":{"type":"Point","coordinates":[139.759705,35.707546]},"properties":{"vehicle_id":"K225","route_id":"131","route_short_name":"上69","route_display_name":"上69 小滝橋車庫前行","route_label":"上69","destination":"小滝橋車庫前","trip_id":"16103-3-29-170-2149","pattern_id":"16103","stop_id":"1410-03","stop_name":"本郷三丁目駅前","next_stop_name":"本郷三丁目駅前","current_stop_name":null,"current_status":"IN_TRANSIT_TO","timestamp":1777641533,"feed_timestamp":1777641609,"source":"odpt"}},{"type":"Feature","id":"A591","geometry":{"type":"Point","coordinates":[139.746307,35.710026]},"properties":{"vehicle_id":"A591","route_id":"131","route_short_name":"上69","route_display_name":"上69 小滝橋車庫前行","route_label":"上69","destination":"小滝橋車庫前","trip_id":"16103-3-29-170-2123","pattern_id":"16103","stop_id":"0961-01","stop_name":"伝通院前","next_stop_name":"伝通院前","current_stop_name":null,"current_status":"IN_TRANSIT_TO","timestamp":1777641551,"feed_timestamp":1777641609,"source":"odpt"}},{"type":"Feature","id":"D300","geometry":{"type":"Point","coordinates":[139.707306,35.712032]},"properties":{"vehicle_id":"D300","route_id":"131","route_short_name":"上69","route_display_name":"上69 小滝橋車庫前行","route_label":"上69","destination":"小滝橋車庫前","trip_id":"16103-3-29-170-2057","pattern_id":"16103","stop_id":"1009-01","stop_name":"新宿区社会福祉協議会前","next_stop_name":"新宿区社会福祉協議会前","current_stop_name":null,"current_status":"IN_TRANSIT_TO","timestamp":1777641534,"feed_timestamp":1777641609,"source":"odpt"}},{"type":"Feature","id":"C221","geometry":{"type":"Point","coordinates":[139.659485,35.731163]},"properties":{"vehicle_id":"C221","route_id":"129","route_short_name":"池65","route_display_name":"池65 練馬車庫前行","route_label":"池65","destination":"練馬車庫前","trip_id":"44001-2-37-170-2150","pattern_id":"44001","stop_id":"1034-01","stop_name":"豊玉中二丁目","next_stop_name":"豊玉中二丁目","current_stop_name":null,"current_status":"IN_TRANSIT_TO","timestamp":1777641550,"feed_timestamp":1777641609,"source":"odpt"}},{"type":"Feature","id":"B729","geometry":{"type":"Point","coordinates":[139.708725,35.706402]},"properties":{"vehicle_id":"B729","route_id":"147","route_short_name":"早77","route_display_name":"早77 早稲田行","route_label":"早77","destination":"早稲田","trip_id":"20201-2-33-170-2200","pattern_id":"20201","stop_id":"1051-01","stop_name":"早大理工前","next_stop_name":"早大理工前","current_stop_name":null,"current_status":"IN_TRANSIT_TO","timestamp":1777641593,"feed_timestamp":1777641609,"source":"odpt"}},{"type":"Feature","id":"B724","geometry":{"type":"Point","coordinates":[139.737045,35.761971]},"properties":{"vehicle_id":"B724","route_id":"148","route_short_name":"王78","route_display_name":"王78 杉並車庫前行","route_label":"王78","destination":"杉並車庫前","trip_id":"24103-2-21-170-2210","pattern_id":"24103","stop_id":"0200-02","stop_name":"王子四丁目","next_stop_name":"王子四丁目","current_stop_name":null,"current_status":"IN_TRANSIT_TO","timestamp":1777641539,"feed_timestamp":1777641609,"source":"odpt"}},{"type":"Feature","id":"E403","geometry":{"type":"Point","coordinates":[139.654938,35.704906]},"properties":{"vehicle_id":"E403","route_id":"148","route_short_name":"王78","route_display_name":"王78 杉並車庫前行","route_label":"王78","destination":"杉並車庫前","trip_id":"24103-2-21-170-2142","pattern_id":"24103","stop_id":"0478-01","stop_name":"高円寺駅入口","next_stop_name":"高円寺駅入口","current_stop_name":null,"current_status":"IN_TRANSIT_TO","timestamp":1777641591,"feed_timestamp":1777641609,"source":"odpt"}},{"type":"Feature","id":"A603","geometry":{"type":"Point","coordinates":[139.70462,35.679394]},"properties":{"vehicle_id":"A603","route_id":"152","route_short_name":"池86","route_display_name":"池86 池袋駅東口行","route_label":"池86","destination":"池袋駅東口","trip_id":"20005-3-33-170-2048","pattern_id":"20005","stop_id":"0404-01","stop_name":"北参道","next_stop_name":"北参道","current_stop_name":null,"current_status":"IN_TRANSIT_TO","timestamp":1777641504,"feed_timestamp":1777641609,"source":"odpt"}},{"type":"Feature","id":"V331","geometry":{"type":"Point","coordinates":[139.737,35.644196]},"properties":{"vehicle_id":"V331","route_id":"153","route_short_name":"田87","route_display_name":"田87 渋谷駅前行","route_label":"田87","destination":"渋谷駅前","trip_id":"08301-2-09-172-2213","pattern_id":"8301","stop_id":"0444-07","stop_name":"魚籃坂下","next_stop_name":"魚籃坂下","current_stop_name":null,"current_status":"IN_TRANSIT_TO","timestamp":1777641544,"feed_timestamp":1777641609,"source":"odpt"}},{"type":"Feature","id":"V328","geometry":{"type":"Point","coordinates":[139.716705,35.645515]},"properties":{"vehicle_id":"V328","route_id":"153","route_short_name":"田87","route_display_name":"田87 渋谷駅前行","route_label":"田87","destination":"渋谷駅前","trip_id":"08301-2-09-172-2201","pattern_id":"8301","stop_id":"0188-02","stop_name":"恵比寿四丁目","next_stop_name":"恵比寿四丁目","current_stop_name":null,"current_status":"IN_TRANSIT_TO","timestamp":1777641407,"feed_timestamp":1777641609,"source":"odpt"}},{"type":"Feature","id":"H853","geometry":{"type":"Point","coordinates":[139.752304,35.602287]},"properties":{"vehicle_id":"H853","route_id":"157","route_short_name":"品91","route_display_name":"品91 八潮公園前行","route_label":"品91","destination":"八潮公園前","trip_id":"01010-1-01-170-2200","pattern_id":"1010","stop_id":"2012-01","stop_name":"八潮北","next_stop_name":"八潮北","current_stop_name":null,"current_status":"IN_TRANSIT_TO","timestamp":1777641543,"feed_timestamp":1777641609,"source":"odpt"}},{"type":"Feature","id":"F568","geometry":{"type":"Point","coordinates":[139.674744,35.697739]},"properties":{"vehicle_id":"F568","route_id":"158","route_short_name":"宿91","route_display_name":"宿91 新宿駅西口行","route_label":"宿91","destination":"新宿駅西口","trip_id":"24302-1-21-170-2200","pattern_id":"24302","stop_id":"1092-01","stop_name":"本町三丁目(ほんちょうさんちょうめ（なかのく）)","next_stop_name":"本町三丁目(ほんちょうさんちょうめ（なかのく）)","current_stop_name":null,"current_status":"IN_TRANSIT_TO","timestamp":1777641504,"feed_timestamp":1777641609,"source":"odpt"}},{"type":"Feature","id":"F567","geometry":{"type":"Point","coordinates":[139.655136,35.689644]},"properties":{"vehicle_id":"F567","route_id":"158","route_short_name":"宿91","route_display_name":"宿91 新代田駅前行","route_label":"宿91","destination":"新代田駅前","trip_id":"24302-2-21-170-2200","pattern_id":"24302","stop_id":"1399-02","stop_name":"杏林大学杉並病院前","next_stop_name":"杏林大学杉並病院前","current_stop_name":null,"current_status":"IN_TRANSIT_TO","timestamp":1777641600,"feed_timestamp":1777641609,"source":"odpt"}},{"type":"Feature","id":"C202","geometry":{"type":"Point","coordinates":[139.747223,35.60741]},"properties":{"vehicle_id":"C202","route_id":"160","route_short_name":"井92","route_display_name":"井92 八潮公園前行","route_label":"井92","destination":"八潮公園前","trip_id":"01105-3-01-170-2210","pattern_id":"1105","stop_id":"1048-03","stop_name":"都立産業技術高専品川キャンパス前","next_stop_name":"都立産業技術高専品川キャンパス前","current_stop_name":null,"current_status":"IN_TRANSIT_TO","timestamp":1777641583,"feed_timestamp":1777641609,"source":"odpt"}},{"type":"Feature","id":"Y487","geometry":{"type":"Point","coordinates":[139.728439,35.636539]},"properties":{"vehicle_id":"Y487","route_id":"161","route_short_name":"品93","route_display_name":"品93 目黒駅前行","route_label":"品93","destination":"目黒駅前","trip_id":"00401-1-01-170-2155","pattern_id":"401","stop_id":"0683-02","stop_name":"白金小学校前","next_stop_name":"白金小学校前","current_stop_name":null,"current_status":"IN_TRANSIT_TO","timestamp":1777641564,"feed_timestamp":1777641609,"source":"odpt"}},{"type":"Feature","id":"M373","geometry":{"type":"Point","coordinates":[139.742798,35.620476]},"properties":{"vehicle_id":"M373","route_id":"161","route_short_name":"品93","route_display_name":"品93 大井競馬場前行","route_label":"品93","destination":"大井競馬場前","trip_id":"00401-2-01-170-2200","pattern_id":"401","stop_id":"1286-02","stop_name":"東品川一丁目","next_stop_name":"東品川一丁目","current_stop_name":null,"current_status":"IN_TRANSIT_TO","timestamp":1777641598,"feed_timestamp":1777641609,"source":"odpt"}},{"type":"Feature","id":"L303","geometry":{"type":"Point","coordinates":[139.722595,35.636417]},"properties":{"vehicle_id":"L303","route_id":"161","route_short_name":"品93","route_display_name":"品93 都立産業技術高専品川キャンパス前行","route_label":"品93","destination":"都立産業技術高専品川キャンパス前","trip_id":"00404-2-01-170-2215","pattern_id":"404","stop_id":"0680-02","stop_name":"白金台五丁目","next_stop_name":"白金台五丁目","current_stop_name":null,"current_status":"IN_TRANSIT_TO","timestamp":1777641553,"feed_timestamp":1777641609,"source":"odpt"}},{"type":"Feature","id":"B713","geometry":{"type":"Point","coordinates":[139.741257,35.593571]},"properties":{"vehicle_id":"B713","route_id":"161","route_short_name":"品93","route_display_name":"品93 品川車庫前行","route_label":"品93","destination":"品川車庫前","trip_id":"00406-2-01-170-2219","pattern_id":"406","stop_id":"0216-01","stop_name":"大井競馬場前","next_stop_name":"大井競馬場前","current_stop_name":null,"current_status":"IN_TRANSIT_TO","timestamp":1777641566,"feed_timestamp":1777641609,"source":"odpt"}},{"type":"Feature","id":"F565","geometry":{"type":"Point","coordinates":[139.72963,35.660542]},"properties":{"vehicle_id":"F565","route_id":"166","route_short_name":"反96","route_display_name":"反96 品川駅高輪口行","route_label":"反96","destination":"品川駅高輪口","trip_id":"01716-2-06-170-2216","pattern_id":"1716","stop_id":"2480-01","stop_name":"六本木ヒルズ","next_stop_name":"六本木ヒルズ","current_stop_name":null,"current_status":"IN_TRANSIT_TO","timestamp":1777641399,"feed_timestamp":1777641609,"source":"odpt"}},{"type":"Feature","id":"K211","geometry":{"type":"Point","coordinates":[139.749878,35.62669]},"properties":{"vehicle_id":"K211","route_id":"165","route_short_name":"品96","route_display_name":"品96 品川駅港南口行","route_label":"品96","destination":"品川駅港南口","trip_id":"01402-2-01-170-2216","pattern_id":"1402","stop_id":"2283-02","stop_name":"天王洲運河","next_stop_name":"天王洲運河","current_stop_name":null,"current_status":"IN_TRANSIT_TO","timestamp":1777641533,"feed_timestamp":1777641609,"source":"odpt"}},{"type":"Feature","id":"F566","geometry":{"type":"Point","coordinates":[139.705872,35.690308]},"properties":{"vehicle_id":"F566","route_id":"169","route_short_name":"品97","route_display_name":"品97 新宿駅西口行","route_label":"品97","destination":"新宿駅西口","trip_id":"24001-1-21-170-2140","pattern_id":"24001","stop_id":"0713-11","stop_name":"新宿三丁目","next_stop_name":"新宿三丁目","current_stop_name":null,"current_status":"IN_TRANSIT_TO","timestamp":1777641576,"feed_timestamp":1777641609,"source":"odpt"}},{"type":"Feature","id":"E372","geometry":{"type":"Point","coordinates":[139.732437,35.630268]},"properties":{"vehicle_id":"E372","route_id":"169","route_short_name":"品97","route_display_name":"品97 品川駅高輪口行","route_label":"品97","destination":"品川駅高輪口","trip_id":"24001-2-06-170-2130","pattern_id":"24001","stop_id":"0869-04","stop_name":"グランドプリンスホテル新高輪前","next_stop_name":"グランドプリンスホテル新高輪前","current_stop_name":null,"current_status":"IN_TRANSIT_TO","timestamp":1777641592,"feed_timestamp":1777641609,"source":"odpt"}},{"type":"Feature","id":"K213","geometry":{"type":"Point","coordinates":[139.761108,35.601925]},"properties":{"vehicle_id":"K213","route_id":"170","route_short_name":"品98","route_display_name":"品98 品川駅港南口行","route_label":"品98","destination":"品川駅港南口","trip_id":"04107-3-01-170-2135","pattern_id":"4107","stop_id":"1624-02","stop_name":"４号バース前","next_stop_name":"４号バース前","current_stop_name":null,"current_status":"IN_TRANSIT_TO","timestamp":1777641569,"feed_timestamp":1777641609,"source":"odpt"}},{"type":"Feature","id":"K214","geometry":{"type":"Point","coordinates":[139.757599,35.631508]},"properties":{"vehicle_id":"K214","route_id":"173","route_short_name":"品99","route_display_name":"品99 品川駅港南口行","route_label":"品99","destination":"品川駅港南口","trip_id":"04505-3-01-170-2146","pattern_id":"4505","stop_id":"0609-01","stop_name":"品川埠頭","next_stop_name":"品川埠頭","current_stop_name":null,"current_status":"IN_TRANSIT_TO","timestamp":1777641586,"feed_timestamp":1777641609,"source":"odpt"}},{"type":"Feature","id":"M439","geometry":{"type":"Point","coordinates":[139.875687,35.671345]},"properties":{"vehicle_id":"M439","route_id":"176","route_short_name":"臨海28－2","route_display_name":"臨海28－2 臨海車庫行","route_label":"臨海28－2","destination":"臨海車庫","trip_id":"69006-2-69-170-2208","pattern_id":"69006","stop_id":"0462-01","stop_name":"桑川町","next_stop_name":"桑川町","current_stop_name":null,"current_status":"IN_TRANSIT_TO","timestamp":1777641554,"feed_timestamp":1777641609,"source":"odpt"}},{"type":"Feature","id":"G719","geometry":{"type":"Point","coordinates":[139.872635,35.653858]},"properties":{"vehicle_id":"G719","route_id":"176","route_short_name":"臨海28－2","route_display_name":"臨海28－2 臨海車庫行","route_label":"臨海28－2","destination":"臨海車庫","trip_id":"69007-2-69-170-2214","pattern_id":"69007","stop_id":"2031-02","stop_name":"葛西南高校入口","next_stop_name":"葛西南高校入口","current_stop_name":null,"current_status":"IN_TRANSIT_TO","timestamp":1777641562,"feed_timestamp":1777641609,"source":"odpt"}},{"type":"Feature","id":"C272","geometry":{"type":"Point","coordinates":[139.872635,35.653858]},"properties":{"vehicle_id":"C272","route_id":"175","route_short_name":"臨海28－1","route_display_name":"臨海28－1 臨海車庫前行","route_label":"臨海28－1","destination":"臨海車庫前","trip_id":"68908-2-77-170-2203","pattern_id":"68908","stop_id":"2031-02","stop_name":"葛西南高校入口","next_stop_name":"葛西南高校入口","current_stop_name":null,"current_status":"IN_TRANSIT_TO","timestamp":1777641462,"feed_timestamp":1777641609,"source":"odpt"}},{"type":"Feature","id":"G704","geometry":{"type":"Point","coordinates":[139.772781,35.647358]},"properties":{"vehicle_id":"G704","route_id":"183","route_short_name":"都05－1出入","route_display_name":"都05－1出入 深川車庫前行","route_label":"都05－1出入","destination":"深川車庫前","trip_id":"72416-2-81-170-2217","pattern_id":"72416","stop_id":"1249-04","stop_name":"晴海埠頭","next_stop_name":"晴海埠頭","current_stop_name":null,"current_status":"IN_TRANSIT_TO","timestamp":1777641454,"feed_timestamp":1777641609,"source":"odpt"}},{"type":"Feature","id":"G707","geometry":{"type":"Point","coordinates":[139.762405,35.673233]},"properties":{"vehicle_id":"G707","route_id":"184","route_short_name":"都05－1","route_display_name":"都05－1 晴海埠頭行","route_label":"都05－1","destination":"晴海埠頭","trip_id":"72414-2-81-170-2209","pattern_id":"72414","stop_id":"0778-03","stop_name":"数寄屋橋","next_stop_name":"数寄屋橋","current_stop_name":null,"current_status":"IN_TRANSIT_TO","timestamp":1777641561,"feed_timestamp":1777641609,"source":"odpt"}},{"type":"Feature","id":"A671","geometry":{"type":"Point","coordinates":[139.780563,35.656746]},"properties":{"vehicle_id":"A671","route_id":"184","route_short_name":"都05－1","route_display_name":"都05－1 晴海埠頭行","route_label":"都05－1","destination":"晴海埠頭","trip_id":"72414-2-81-170-2158","pattern_id":"72414","stop_id":"2442-01","stop_name":"晴海トリトンスクエア前","next_stop_name":"晴海トリトンスクエア前","current_stop_name":null,"current_status":"IN_TRANSIT_TO","timestamp":1777641554,"feed_timestamp":1777641609,"source":"odpt"}},{"type":"Feature","id":"E119","geometry":{"type":"Point","coordinates":[139.788559,35.648293]},"properties":{"vehicle_id":"E119","route_id":"181","route_short_name":"都05－2","route_display_name":"都05－2 東京駅丸の内南口行","route_label":"都05－2","destination":"東京駅丸の内南口","trip_id":"72602-1-81-170-2200","pattern_id":"72602","stop_id":"2589-01","stop_name":"新豊洲駅前","next_stop_name":"新豊洲駅前","current_stop_name":null,"current_status":"IN_TRANSIT_TO","timestamp":1777641491,"feed_timestamp":1777641609,"source":"odpt"}},{"type":"Feature","id":"L360","geometry":{"type":"Point","coordinates":[139.762711,35.6754]},"properties":{"vehicle_id":"L360","route_id":"181","route_short_name":"都05－2","route_display_name":"都05－2 有明一丁目行","route_label":"都05－2","destination":"有明一丁目","trip_id":"72602-2-81-170-2205","pattern_id":"72602","stop_id":"1570-01","stop_name":"有楽町駅前","next_stop_name":"有楽町駅前","current_stop_name":null,"current_status":"IN_TRANSIT_TO","timestamp":1777641551,"feed_timestamp":1777641609,"source":"odpt"}},{"type":"Feature","id":"L357","geometry":{"type":"Point","coordinates":[139.793686,35.639725]},"properties":{"vehicle_id":"L357","route_id":"181","route_short_name":"都05－2","route_display_name":"都05－2 有明一丁目行","route_label":"都05－2","destination":"有明一丁目","trip_id":"72602-2-81-170-2150","pattern_id":"72602","stop_id":"2594-01","stop_name":"かえつ学園西","next_stop_name":"かえつ学園西","current_stop_name":null,"current_status":"IN_TRANSIT_TO","timestamp":1777641543,"feed_timestamp":1777641609,"source":"odpt"}},{"type":"Feature","id":"G746","geometry":{"type":"Point","coordinates":[139.712906,35.720882]},"properties":{"vehicle_id":"G746","route_id":"185","route_short_name":"池86出入","route_display_name":"池86出入 早稲田行","route_label":"池86出入","destination":"早稲田","trip_id":"20013-2-33-170-2214","pattern_id":"20013","stop_id":"0926-01","stop_name":"千登世橋","next_stop_name":"千登世橋","current_stop_name":null,"current_status":"IN_TRANSIT_TO","timestamp":1777641555,"feed_timestamp":1777641609,"source":"odpt"}},{"type":"Feature","id":"E397","geometry":{"type":"Point","coordinates":[139.700836,35.660015]},"properties":{"vehicle_id":"E397","route_id":"185","route_short_name":"池86出入","route_display_name":"池86出入 早稲田行","route_label":"池86出入","destination":"早稲田","trip_id":"20016-3-33-170-2140","pattern_id":"20016","stop_id":"0634-01","stop_name":"渋谷駅西口","next_stop_name":"渋谷駅西口","current_stop_name":null,"current_status":"IN_TRANSIT_TO","timestamp":1777641237,"feed_timestamp":1777641609,"source":"odpt"}},{"type":"Feature","id":"L338","geometry":{"type":"Point","coordinates":[139.80188,35.721081]},"properties":{"vehicle_id":"L338","route_id":"195","route_short_name":"東42－2","route_display_name":"東42－2 東神田行","route_label":"東42－2","destination":"東神田","trip_id":"52202-1-57-170-2214","pattern_id":"52202","stop_id":"0119-01","stop_name":"今戸","next_stop_name":"今戸","current_stop_name":null,"current_status":"IN_TRANSIT_TO","timestamp":1777641564,"feed_timestamp":1777641609,"source":"odpt"}},{"type":"Feature","id":"W464","geometry":{"type":"Point","coordinates":[139.795486,35.708]},"properties":{"vehicle_id":"W464","route_id":"195","route_short_name":"東42－2","route_display_name":"東42－2 南千住車庫前行","route_label":"東42－2","destination":"南千住車庫前","trip_id":"52202-2-57-170-2207","pattern_id":"52202","stop_id":"0537-01","stop_name":"駒形橋","next_stop_name":"駒形橋","current_stop_name":null,"current_status":"IN_TRANSIT_TO","timestamp":1777641389,"feed_timestamp":1777641609,"source":"odpt"}}]}